City_ID,City,Lat,Lng,Max Temp,Humidity,Cloudiness,Wind Speed,Country,Date
0,narrabri,-30.3167,149.7833,20.29000000000002,48,0,0.89,AU,1681184585
1,varhaug,58.6147,5.6457,8.25,94,100,9.58,NO,1681184585
2,rongai,-0.1733,35.8638,14.189999999999998,83,95,1.13,KE,1681184585
3,tuktoyaktuk,69.4541,-133.0374,-10.0,85,100,2.06,CA,1681184585
4,grand gaube,-20.0064,57.6608,25.210000000000036,85,100,7.97,MU,1681184585
5,cape town,-33.9258,18.4232,16.32000000000005,70,20,1.03,ZA,1681184400
6,awjilah,29.1081,21.2869,11.879999999999995,73,0,3.79,LY,1681184340
7,torbay,47.6666,-52.7314,1.4300000000000068,83,0,5.66,CA,1681184586
8,malanville,11.8685,3.3899,27.970000000000027,18,86,1.74,BJ,1681184586
9,surt,31.2089,16.5887,14.75,62,0,7.78,LY,1681184587
10,leh,34.1667,77.5833,-2.819999999999993,48,0,0.87,IN,1681184587
11,talcahuano,-36.7167,-73.1167,14.82000000000005,100,100,2.57,CL,1681184587
12,mataura,-46.1927,168.8643,11.379999999999995,97,100,1.41,NZ,1681184587
13,mahebourg,-20.4081,57.7,25.140000000000043,94,75,0.0,MU,1681184587
14,mamallapuram,12.6264,80.1722,31.140000000000043,57,78,1.89,IN,1681184587
15,khatanga,71.9667,102.5,-18.089999999999975,84,100,3.95,RU,1681184588
16,port-gentil,-0.7193,8.7815,27.27000000000004,78,100,2.7,GA,1681184588
17,atuona,-9.8,-139.0333,26.99000000000001,80,87,6.11,PF,1681184588
18,ushuaia,-54.8,-68.3,5.810000000000002,81,75,14.4,AR,1681184452
19,sainte-marie,-20.8968,55.5496,25.07000000000005,87,100,5.14,RE,1681184588
20,ossora,59.2353,163.0719,-6.509999999999991,91,100,11.33,RU,1681184588
21,littlehampton,50.8069,-0.5378,8.32000000000005,84,85,8.19,GB,1681184589
22,ribeira grande,38.5167,-28.7,16.54000000000002,93,100,6.71,PT,1681184589
23,rambha,19.5167,85.1,35.76000000000005,29,0,2.43,IN,1681184589
24,san rafael,-34.6177,-68.3301,17.100000000000023,68,52,1.6,AR,1681184434
25,cao bang,22.6667,106.25,24.560000000000002,82,94,1.97,VN,1681184589
26,ostrovnoy,68.0531,39.5131,1.2600000000000477,98,100,6.22,RU,1681184589
27,port alfred,-33.5906,26.891,13.990000000000009,70,80,3.13,ZA,1681184590
28,east london,-33.0153,27.9116,15.520000000000039,51,0,5.66,ZA,1681184590
29,arawa,-6.2132,155.5367,29.210000000000036,78,100,2.09,PG,1681184590
30,dikson,73.5069,80.5464,-22.19999999999999,95,97,5.8,RU,1681184590
31,clonakilty,51.6231,-8.8706,5.560000000000002,86,98,6.11,IE,1681184590
32,alofi,-19.0595,-169.9187,28.939999999999998,61,3,5.14,NU,1681184590
33,butaritari,3.0707,172.7902,27.08000000000004,81,88,4.8,KI,1681184591
34,alikovo,55.7383,46.7549,4.910000000000025,74,9,2.16,RU,1681184591
35,cam ranh,11.9214,109.1591,30.980000000000018,58,20,1.54,VN,1681184381
36,padang,-0.9492,100.3543,30.03000000000003,67,100,2.1,ID,1681184591
37,vardo,70.3705,31.1107,1.990000000000009,93,100,4.63,NO,1681184591
38,ahipara,-35.1667,173.1667,19.370000000000005,88,17,8.06,NZ,1681184591
39,alugan,12.2188,125.4808,23.730000000000018,93,100,6.27,PH,1681184592
40,bluff,-46.6,168.3333,11.560000000000002,96,100,8.21,NZ,1681184592
41,villa carlos paz,-31.4241,-64.4978,20.220000000000027,85,2,1.8,AR,1681184592
42,akyab,20.15,92.9,30.77000000000004,42,1,3.15,MM,1681184592
43,sarakhs,36.5449,61.1577,20.390000000000043,32,9,4.9,IR,1681184296
44,andenes,69.3143,16.1194,1.07000000000005,86,0,3.6,NO,1681184593
45,vaini,-21.2,-175.2,30.090000000000032,74,20,5.66,TO,1681184593
46,saskylakh,71.9167,114.0833,-16.00999999999999,86,100,6.63,RU,1681184593
47,acoyapa,11.9703,-85.1711,24.340000000000032,75,91,4.82,NI,1681184594
48,cayenne,4.9333,-52.3333,24.02000000000004,94,0,0.0,GF,1681184594
49,upernavik,72.7868,-56.1549,-18.409999999999968,97,98,6.67,GL,1681184594
50,bengkulu,-3.8004,102.2655,28.810000000000002,67,62,2.27,ID,1681184397
51,san juan,-31.5375,-68.5364,23.75,50,74,1.11,AR,1681184594
52,ponta do sol,32.6667,-17.1,19.350000000000023,47,7,1.42,PT,1681184594
53,tezu,27.9167,96.1667,32.22000000000003,24,3,2.08,IN,1681184595
54,choix,26.7092,-108.3219,25.140000000000043,17,100,0.75,MX,1681184595
55,hobart,-42.8794,147.3294,16.810000000000002,78,75,4.12,AU,1681184595
56,te anau,-45.4167,167.7167,12.32000000000005,98,100,1.25,NZ,1681184595
57,monrovia,6.3005,-10.7969,26.49000000000001,84,47,2.6,LR,1681184595
58,new norfolk,-42.7826,147.0587,16.620000000000005,62,99,1.08,AU,1681184596
59,hithadhoo,-0.6,73.0833,28.120000000000005,66,3,0.55,MV,1681184596
60,vila velha,-20.3297,-40.2925,21.970000000000027,96,100,3.09,BR,1681184596
61,palmer,42.1584,-72.3287,9.650000000000034,49,0,0.0,US,1681184596
62,rikitea,-23.1203,-134.9692,24.850000000000023,70,93,3.97,PF,1681184596
63,muros,42.7762,-9.0603,12.600000000000023,95,71,1.06,ES,1681184596
64,maniitsoq,65.4167,-52.9,-0.47999999999996135,65,4,5.23,GL,1681184597
65,cabras,39.93,8.5314,7.740000000000009,84,35,2.05,IT,1681184597
66,antofagasta,-23.65,-70.4,18.600000000000023,80,23,2.49,CL,1681184442
67,mirnyy,62.5353,113.9611,-7.089999999999975,34,90,4.92,RU,1681184597
68,goderich,43.7501,-81.7165,13.180000000000007,35,84,6.69,CA,1681184597
69,nanortalik,60.1432,-45.2371,0.5200000000000387,93,100,2.94,GL,1681184597
70,zhigansk,66.7697,123.3711,-16.079999999999984,73,93,1.87,RU,1681184598
71,krasnoselkup,65.7,82.4667,-20.169999999999987,90,57,6.61,RU,1681184598
72,avarua,-21.2078,-159.775,27.03000000000003,61,14,2.06,CK,1681184598
73,sitka,57.0531,-135.33,5.939999999999998,56,100,3.6,US,1681184598
74,khani,41.9563,42.9566,10.760000000000048,81,87,2.73,GE,1681184598
75,dingle,10.9995,122.6711,25.590000000000032,79,100,1.68,PH,1681184598
76,portland,45.5234,-122.6762,7.32000000000005,94,100,4.12,US,1681184100
77,busselton,-33.65,115.3333,19.29000000000002,73,99,5.69,AU,1681184599
78,bethel,41.3712,-73.414,9.770000000000039,59,0,1.54,US,1681184599
79,nikolskoye,59.7035,30.7861,2.670000000000016,85,99,0.53,RU,1681184599
80,narsaq,60.9167,-46.05,8.120000000000005,61,98,4.8,GL,1681184599
81,trincomalee,8.5711,81.2335,29.379999999999995,65,72,4.31,LK,1681184599
82,albany,42.6001,-73.9662,9.960000000000036,52,9,1.34,US,1681184599
83,myitkyina,25.3833,97.4,36.53000000000003,19,0,0.6,MM,1681184599
84,san patricio,28.017,-97.5169,21.920000000000016,92,30,2.27,US,1681184600
85,mino,34.8269,135.4706,23.010000000000048,55,40,4.63,JP,1681184600
86,port lincoln,-34.7333,135.8667,17.25,85,100,5.38,AU,1681184600
87,djambala,-2.5447,14.7533,20.090000000000032,98,100,2.01,CG,1681184600
88,bandarbeyla,9.4942,50.8122,27.560000000000002,75,19,3.48,SO,1681184601
89,kangaatsiaq,68.3065,-53.4641,-8.810000000000002,99,61,2.24,GL,1681184311
90,santiago del estero,-27.7951,-64.2615,21.920000000000016,61,8,3.14,AR,1681184336
91,la ronge,55.1001,-105.2842,7.140000000000043,33,40,3.6,CA,1681184601
92,punta arenas,-53.15,-70.9167,6.060000000000002,75,0,13.38,CL,1681184601
93,sistranda,63.7256,8.834,7.980000000000018,76,70,4.56,NO,1681184601
94,bontang,0.1333,117.5,28.680000000000007,74,18,2.33,ID,1681184602
95,bouza,14.4229,6.0428,26.610000000000014,16,73,4.93,NE,1681184602
96,hilo,19.7297,-155.09,23.49000000000001,85,100,4.12,US,1681184374
97,yellowknife,62.456,-114.3525,-1.7099999999999795,86,100,6.17,CA,1681184602
98,chokurdakh,70.6333,147.9167,-16.269999999999982,82,84,2.38,RU,1681184602
99,wangaratta,-36.3667,146.3333,20.260000000000048,48,7,1.27,AU,1681184603
100,namibe,-15.1961,12.1522,22.52000000000004,79,3,1.0,AO,1681184603
101,port elizabeth,-33.918,25.5701,15.610000000000014,72,0,9.26,ZA,1681184603
102,meulaboh,4.1363,96.1285,29.32000000000005,67,97,0.4,ID,1681184603
103,jamestown,42.097,-79.2353,10.800000000000011,52,0,1.54,US,1681184528
104,tateyama,34.9833,139.8667,18.08000000000004,69,0,10.38,JP,1681184604
105,batemans bay,-35.7167,150.1833,19.5,55,69,5.56,AU,1681184604
106,jalu,29.0331,21.5482,11.939999999999998,74,0,3.97,LY,1681184604
107,castro,-24.7911,-50.0119,13.310000000000002,97,1,2.03,BR,1681184604
108,urumqi,43.801,87.6005,11.53000000000003,41,0,1.0,CN,1681184605
109,thompson,55.7435,-97.8558,8.090000000000032,39,20,6.17,CA,1681184431
110,kenai,60.5544,-151.2583,-2.7299999999999613,76,100,2.06,US,1681184605
111,hermanus,-34.4187,19.2345,11.560000000000002,69,62,1.29,ZA,1681184605
112,lebu,-37.6167,-73.65,14.910000000000025,99,74,2.71,CL,1681184605
113,guanica,17.9716,-66.908,25.590000000000032,84,1,3.31,PR,1681184605
114,novobiryusinskiy,56.9578,97.7076,4.910000000000025,73,100,5.15,RU,1681184605
115,kavaratti,10.5669,72.642,28.77000000000004,67,71,1.78,IN,1681184606
116,yerofey pavlovich,53.9667,121.9667,1.5,70,100,4.04,RU,1681184606
117,hasaki,35.7333,140.8333,23.220000000000027,64,0,11.17,JP,1681184606
118,haines junction,60.7522,-137.5108,-1.0299999999999727,43,9,4.63,CA,1681184606
119,rawson,-43.3002,-65.1023,13.100000000000023,62,100,6.68,AR,1681184606
120,susangerd,31.5608,48.1831,25.340000000000032,39,100,4.34,IR,1681184607
121,mitsamiouli,-11.3847,43.2844,27.480000000000018,77,9,3.29,KM,1681184607
122,provideniya,64.3833,-173.3,-18.68999999999997,60,0,7.0,RU,1681184607
123,cabo san lucas,22.8909,-109.9124,25.170000000000016,35,40,5.14,MX,1681184608
124,madimba,-10.4,40.3333,24.510000000000048,92,40,2.71,TZ,1681184608
125,piacabucu,-10.4056,-36.4344,25.24000000000001,84,100,1.78,BR,1681184608
126,severo-kurilsk,50.6789,156.125,-0.5699999999999932,83,84,14.14,RU,1681184608
127,solok,-0.7918,100.6593,27.53000000000003,58,91,0.91,ID,1681184609
128,valparaiso,-33.0393,-71.6273,17.220000000000027,67,40,3.97,CL,1681184279
129,natal,-5.795,-35.2094,24.360000000000014,94,20,2.06,BR,1681184406
130,iki-burul,45.8208,44.6472,10.850000000000023,66,47,8.14,RU,1681184609
131,bambous virieux,-20.3428,57.7575,25.120000000000005,94,75,0.0,MU,1681184609
132,saint-francois,46.4154,3.9054,11.490000000000009,87,0,1.03,FR,1681184610
133,gizo,-8.103,156.8419,27.99000000000001,74,100,0.75,SB,1681184610
134,shingu,33.7333,135.9833,20.370000000000005,55,72,6.21,JP,1681184610
135,saint-pierre,-21.3393,55.4781,24.760000000000048,83,0,2.57,RE,1681184610
136,pisco,-13.7,-76.2167,22.230000000000018,94,48,5.14,PE,1681184610
137,kitgum,3.2783,32.8867,20.29000000000002,56,66,2.25,UG,1681184610
138,puerto ayora,-0.7393,-90.3518,26.420000000000016,89,62,0.49,EC,1681184611
139,rajakhera,26.8961,78.1714,33.370000000000005,9,72,2.23,IN,1681184611
140,longyearbyen,78.2186,15.6401,-4.089999999999975,80,75,5.14,SJ,1681184498
141,bredasdorp,-34.5322,20.0403,12.939999999999998,78,57,2.15,ZA,1681184611
142,pankovka,58.5,31.1999,4.57000000000005,79,89,1.64,RU,1681184611
143,sligo,54.2697,-8.4694,2.5600000000000023,89,10,3.19,IE,1681184611
144,corrente,-3.7367,-43.3394,22.640000000000043,99,100,0.94,BR,1681184612
145,auki,-8.7676,160.7034,25.730000000000018,88,95,0.93,SB,1681184612
146,kalaleh,37.3807,55.4916,11.78000000000003,94,75,2.06,IR,1681184612
147,victoria,22.2855,114.1577,27.03000000000003,87,99,0.45,HK,1681184467
148,araouane,18.9048,-3.5265,25.360000000000014,15,99,5.1,ML,1681184612
149,cherskiy,68.75,161.3,-12.729999999999961,79,8,2.86,RU,1681184613
150,barrow,71.2906,-156.7887,-17.98999999999998,71,100,6.69,US,1681184613
151,hofn,64.2539,-15.2082,3.1899999999999977,86,100,2.58,IS,1681184613
152,acajutla,13.5928,-89.8275,26.77000000000004,70,49,3.41,SV,1681184613
153,acari,-15.4311,-74.6158,23.730000000000018,77,59,0.94,PE,1681184613
154,pio xii,-3.8325,-45.1525,22.870000000000005,99,100,1.36,BR,1681184614
155,faanui,-16.4833,-151.75,27.74000000000001,73,100,4.0,PF,1681184614
156,kieta,-6.2167,155.6333,28.900000000000034,77,100,3.06,PG,1681184614
157,kapaa,22.0752,-159.319,26.99000000000001,78,40,7.2,US,1681184614
158,gat,31.61,34.7642,17.670000000000016,100,100,4.31,IL,1681184614
159,cruzeiro do sul,-29.5128,-51.9853,22.510000000000048,90,49,0.83,BR,1681184614
160,kaeo,-35.1,173.7833,21.850000000000023,86,25,7.88,NZ,1681184615
161,paamiut,61.994,-49.6678,0.10000000000002274,81,96,3.14,GL,1681184615
162,tiksi,71.6872,128.8694,-18.95999999999998,93,40,1.72,RU,1681184615
163,ngama,11.7833,17.1667,27.640000000000043,23,100,0.51,TD,1681184615
164,geraldton,-28.7667,114.6,23.230000000000018,46,75,4.63,AU,1681184615
165,kodiak,57.79,-152.4072,2.730000000000018,32,0,2.57,US,1681184440
166,biskamzha,53.4497,89.5272,5.680000000000007,63,54,7.31,RU,1681184615
167,ahar,38.4774,47.0699,14.370000000000005,42,98,1.61,IR,1681184616
168,grindavik,63.8424,-22.4338,3.9700000000000273,100,75,3.6,IS,1681184616
169,salistea de sus,47.65,24.35,2.660000000000025,89,23,1.27,RO,1681184616
170,bombay,19.0144,72.8479,31.99000000000001,48,20,1.54,IN,1681184369
171,carnarvon,-24.8667,113.6333,23.57000000000005,46,13,8.36,AU,1681184616
172,pevek,69.7008,170.3133,-22.23999999999998,90,68,0.78,RU,1681184617
173,ocean city,39.2776,-74.5746,10.140000000000043,67,0,1.79,US,1681184617
174,muroto,33.2833,134.15,18.310000000000002,71,83,6.64,JP,1681184617
175,ancud,-41.8697,-73.8203,13.700000000000045,97,99,3.61,CL,1681184617
176,tucurui,-3.7661,-49.6725,23.180000000000007,98,98,0.98,BR,1681184617
177,kuhdasht,33.535,47.6061,17.629999999999995,38,100,2.65,IR,1681184617
178,saint-philippe,-21.3585,55.7679,22.77000000000004,76,100,3.45,RE,1681184617
179,kaabong,3.4836,34.1492,18.410000000000025,64,76,2.56,UG,1681184618
180,alekseyevsk,57.8406,108.3492,-3.2199999999999704,70,72,4.46,RU,1681184618
181,labuhan,-6.8844,112.2051,29.700000000000045,67,63,4.01,ID,1681184618
182,arraial do cabo,-22.9661,-42.0278,22.650000000000034,74,70,2.4,BR,1681184618
183,kaitangata,-46.2817,169.8464,14.439999999999998,83,64,2.34,NZ,1681184618
184,shimoda,34.6667,138.95,21.200000000000045,65,16,7.11,JP,1681184618
185,jutai,-5.1833,-68.9,21.99000000000001,99,67,0.77,BR,1681184618
186,kalmunai,7.4167,81.8167,29.78000000000003,61,72,4.03,LK,1681184619
187,lingao,19.9103,109.6859,29.879999999999995,63,14,2.58,CN,1681184619
188,leningradskiy,69.3833,178.4167,-18.45999999999998,90,38,2.77,RU,1681184619
189,egvekinot,66.3167,-179.1667,-18.72999999999999,82,8,1.09,RU,1681184619
190,pedernales,18.0384,-71.744,25.689999999999998,76,5,1.72,DO,1681184619
191,marrakesh,31.6315,-8.0083,19.04000000000002,52,3,1.54,MA,1681184603
192,iskateley,67.6803,53.1512,0.26000000000004775,99,100,5.38,RU,1681184620
193,ginda,30.6945,78.4932,20.900000000000034,18,52,1.74,IN,1681184620
194,bama,11.5221,13.6856,28.360000000000014,22,100,2.78,NG,1681184620
195,henties bay,-22.116,14.2845,13.770000000000039,81,0,2.75,NA,1681184620
196,airai,-8.9266,125.4092,22.430000000000007,71,52,1.53,TL,1681184620
197,kinsale,51.7075,-8.5306,5.650000000000034,87,40,4.12,IE,1681184620
198,solnechnyy,50.7214,136.6319,2.740000000000009,89,100,1.66,RU,1681184620
199,komsomolskiy,40.4272,71.7189,16.400000000000034,63,75,1.03,UZ,1681184621
200,klaksvik,62.2266,-6.589,6.510000000000048,81,100,5.05,FO,1681184621
201,salalah,17.0151,54.0924,27.05000000000001,78,20,1.54,OM,1681184621
202,ereymentau,51.6199,73.1033,0.4000000000000341,83,87,3.37,KZ,1681184621
203,kasongo,-4.45,26.6667,19.870000000000005,97,95,0.89,CD,1681184621
204,alihe,50.5667,123.7167,4.330000000000041,29,64,3.13,CN,1681184621
205,sept-iles,50.2001,-66.3821,7.0,68,75,3.09,CA,1681184621
206,mayo,38.8876,-76.5119,12.5,52,0,3.6,US,1681184621
207,fairbanks,64.8378,-147.7164,-9.389999999999986,52,40,2.06,US,1681184354
208,nampula,-15.1165,39.2666,20.590000000000032,98,34,0.92,MZ,1681184622
209,mahanoro,-19.9,48.8,22.689999999999998,88,9,1.34,MG,1681184622
210,greenfield,42.9614,-88.0126,15.03000000000003,53,0,2.57,US,1681184622
211,jiuquan,39.7432,98.5174,14.57000000000005,20,56,2.98,CN,1681184622
212,songea,-10.6833,35.65,16.420000000000016,97,87,0.62,TZ,1681184623
213,los llanos de aridane,28.6585,-17.9182,19.860000000000014,40,0,4.63,ES,1681184623
214,svetlogorsk,52.6333,29.7333,7.590000000000032,78,43,1.4,BY,1681184623
215,ngunguru,-35.6167,174.5,20.27000000000004,80,24,9.17,NZ,1681184623
216,lukovetskiy,64.2956,41.9211,-0.3199999999999932,90,100,2.53,RU,1681184623
217,brae,60.3964,-1.353,6.810000000000002,87,100,5.14,GB,1681184624
218,kahului,20.8947,-156.47,25.010000000000048,73,40,9.26,US,1681184624
219,bathsheba,13.2167,-59.5167,26.340000000000032,69,40,8.75,BB,1681184624
220,hirara,24.8,125.2833,25.920000000000016,65,40,4.12,JP,1681184624
221,rincon,32.296,-81.2354,16.590000000000032,67,40,4.12,US,1681184624
222,okha,53.5739,142.9478,0.4500000000000455,50,0,2.6,RU,1681184624
223,montevideo,-34.8335,-56.1674,19.730000000000018,81,0,3.13,UY,1681184624
224,russell,32.3502,-85.1999,14.600000000000023,64,52,2.79,US,1681184625
225,souillac,-20.5167,57.5167,24.210000000000036,94,75,0.0,MU,1681184625
226,mount gambier,-37.8333,140.7667,19.010000000000048,46,100,3.05,AU,1681184625
227,qandala,11.472,49.8728,28.840000000000032,57,1,4.21,SO,1681184625
228,chenzhou,25.8,113.0333,22.470000000000027,86,98,0.94,CN,1681184625
229,jalingo,8.8833,11.3667,29.220000000000027,59,100,2.85,NG,1681184626
230,beloha,-25.1667,45.05,21.99000000000001,85,0,0.8,MG,1681184626
231,taywarah,33.35,64.4167,9.650000000000034,41,40,2.24,AF,1681184626
232,la primavera,5.4906,-70.4092,27.160000000000025,70,61,1.22,CO,1681184626
233,aksarka,66.5606,67.7975,-16.689999999999998,89,100,0.55,RU,1681184626
234,do gonbadan,30.3586,50.7981,15.050000000000011,63,0,0.0,IR,1681184626
235,esperance,-33.8667,121.9,19.82000000000005,64,76,10.14,AU,1681184627
236,barra patuca,15.8,-84.2833,24.730000000000018,74,14,2.9,HN,1681184627
237,malanje,-9.5402,16.341,17.730000000000018,98,100,0.64,AO,1681184627
238,gondanglegi,-7.7479,112.0132,29.75,70,63,0.76,ID,1681184627
239,eureka,40.8021,-124.1637,14.300000000000011,95,100,1.34,US,1681184437
240,mugumu,-1.85,34.7,14.29000000000002,92,75,1.95,TZ,1681184627
241,cascais,38.6979,-9.4215,15.840000000000032,83,16,6.71,PT,1681184527
242,north bend,43.4065,-124.2243,6.800000000000011,94,100,2.57,US,1681184628
243,sao filipe,14.8961,-24.4956,21.870000000000005,64,77,1.63,CV,1681184628
244,gerash,27.6652,54.1371,17.08000000000004,31,100,1.23,IR,1681184628
245,samarai,-10.6167,150.6667,26.04000000000002,84,100,3.2,PG,1681184628
246,payo,-3.7508,103.6372,32.04000000000002,52,92,1.17,ID,1681184628
247,shenjiamen,29.9576,122.298,16.670000000000016,89,92,5.54,CN,1681184628
248,new plymouth,-39.0667,174.0833,17.120000000000005,96,100,6.51,NZ,1681184629
249,saldanha,-33.0117,17.9442,7.03000000000003,78,24,4.07,ZA,1681184629
250,ulaangom,49.9811,92.0667,-4.099999999999966,47,100,2.59,MN,1681184629
251,peniche,39.3558,-9.3811,16.160000000000025,88,12,5.71,PT,1681184336
252,hami,42.8,93.45,16.410000000000025,13,81,1.59,CN,1681184629
253,jacobina,-11.1806,-40.5183,20.170000000000016,98,87,1.57,BR,1681184629
254,ponta delgada,37.7333,-25.6667,16.400000000000034,94,75,4.12,PT,1681184629
255,rundu,-17.9333,19.7667,17.060000000000002,84,99,1.59,NA,1681184631
256,elizabeth city,36.2946,-76.2511,7.7900000000000205,89,2,1.38,US,1681184529
257,fallon,39.4735,-118.7774,20.930000000000007,36,20,7.2,US,1681184631
258,kamenka,51.3223,42.7678,6.980000000000018,54,63,2.6,RU,1681184631
259,santa rita,-7.1139,-34.9781,25.370000000000005,94,20,1.54,BR,1681184631
260,turinskaya sloboda,57.6232,64.3858,-1.7799999999999727,49,99,3.96,RU,1681184631
261,ilulissat,69.2167,-51.1,6.010000000000048,36,17,11.32,GL,1681184631
262,kyren,51.6828,102.1408,4.400000000000034,37,20,1.94,RU,1681184631
263,skeldon,5.8833,-57.1333,24.24000000000001,92,18,2.75,GY,1681184631
264,obo,5.3998,26.4869,20.189999999999998,93,100,1.9,CF,1681184632
265,baykit,61.67,96.37,-5.439999999999998,93,100,2.0,RU,1681184632
266,tilik,13.8144,120.2002,26.710000000000036,74,100,3.84,PH,1681184632
267,kuusamo,65.9667,29.1833,-7.979999999999961,93,0,0.51,FI,1681184632
268,tulle,45.3333,1.8333,8.32000000000005,96,100,2.57,FR,1681184632
269,suluq,31.6682,20.2521,12.890000000000043,66,5,5.0,LY,1681184632
270,suntar,62.1444,117.6319,-6.0499999999999545,72,100,1.22,RU,1681184632
271,marawi,7.9986,124.2928,25.840000000000032,67,98,2.71,PH,1681184633
272,asau,46.4333,26.4,6.510000000000048,90,100,2.66,RO,1681184633
273,olafsvik,64.8945,-23.7142,3.680000000000007,90,100,3.35,IS,1681184634
274,hervey bay,-25.2986,152.8535,27.79000000000002,45,0,2.68,AU,1681184576
275,bauchi,10.5,10.0,25.55000000000001,22,100,1.27,NG,1681184634
276,lompoc,34.6391,-120.4579,13.210000000000036,90,11,0.89,US,1681184634
277,gannan,47.9147,123.5031,6.170000000000016,18,79,5.96,CN,1681184634
278,tual,-5.6667,132.75,28.77000000000004,71,21,1.69,ID,1681184634
279,kruisfontein,-34.0033,24.7314,13.82000000000005,78,32,8.18,ZA,1681184634
280,ulladulla,-35.35,150.4667,20.980000000000018,54,31,6.08,AU,1681184635
281,dokri,27.3743,68.0967,31.660000000000025,17,100,1.18,PK,1681184635
282,gasa,31.5,34.4667,17.710000000000036,70,100,5.67,PS,1681184633
283,cidreira,-30.1811,-50.2056,22.400000000000034,86,17,4.53,BR,1681184635
284,abonnema,4.7084,6.7931,26.160000000000025,88,100,2.38,NG,1681184635
285,ada,43.4166,-116.1262,21.340000000000032,34,20,9.77,US,1681184635
286,kununurra,-15.7667,128.7333,29.99000000000001,70,75,3.6,AU,1681184636
287,ixtapa,20.7,-105.2,24.010000000000048,83,0,1.03,MX,1681184636
288,georgetown,5.4112,100.3354,31.960000000000036,70,20,2.06,MY,1681184400
289,iqaluit,63.7506,-68.5145,-15.149999999999977,78,75,0.0,CA,1681184636
290,galesong,-5.3166,119.3661,28.010000000000048,74,36,5.55,ID,1681184636
291,tuatapere,-46.1333,167.6833,13.410000000000025,94,100,2.82,NZ,1681184636
292,pouembout,-21.1333,164.9,28.210000000000036,64,18,3.16,NC,1681184636
293,port blair,11.6667,92.75,31.02000000000004,70,20,3.09,IN,1681184636
294,sitio novo do tocantins,-5.5183,-47.4611,22.710000000000036,95,100,1.23,BR,1681184637
295,coaticook,45.1334,-71.7991,11.870000000000005,84,75,2.66,CA,1681184637
296,bowen,-20.0167,148.2333,28.260000000000048,66,2,5.45,AU,1681184637
297,hobyo,5.3505,48.5268,28.420000000000016,72,86,6.84,SO,1681184637
298,quatre cocos,-20.2078,57.7625,25.05000000000001,77,99,6.36,MU,1681184637
299,qaanaaq,77.484,-69.3632,-25.329999999999984,73,0,2.54,GL,1681184637
300,cambrils,41.0748,1.0524,13.920000000000016,82,0,2.57,ES,1681184637
301,tiznit,29.5833,-9.5,20.32000000000005,16,18,2.59,MA,1681184637
302,pacific grove,36.6177,-121.9166,12.990000000000009,90,100,4.12,US,1681184638
303,portobelo,9.55,-79.65,23.950000000000045,88,56,4.74,PA,1681184638
304,natitingou,10.3042,1.3796,23.49000000000001,62,65,1.15,BJ,1681184638
305,biak,-0.9131,122.8766,29.03000000000003,70,24,0.91,ID,1681184638
306,cap-chat,49.1001,-66.6821,4.0,75,49,3.6,CA,1681184638
307,christchurch,-43.5333,172.6333,18.510000000000048,62,83,3.6,NZ,1681184639
308,itoman,26.1247,127.6694,26.010000000000048,57,20,4.12,JP,1681184639
309,vyshneve,50.3891,30.3705,6.7000000000000455,81,68,3.09,UA,1681184639
310,tasiilaq,65.6145,-37.6368,2.090000000000032,98,100,2.05,GL,1681184639
311,abrau-dyurso,44.69,37.59,10.700000000000045,80,97,4.15,RU,1681184639
312,guerrero negro,27.9769,-114.0611,14.760000000000048,87,0,6.22,MX,1681184639
313,saint george,37.1041,-113.5841,24.410000000000025,25,0,2.06,US,1681184639
314,iracoubo,5.4802,-53.2011,25.670000000000016,83,100,4.06,GF,1681184640
315,praia da vitoria,38.7333,-27.0667,17.140000000000043,82,40,7.28,PT,1681184640
316,ouagadougou,12.3642,-1.5383,30.07000000000005,15,0,4.12,BF,1681184640
317,farafenni,13.5667,-15.6,23.060000000000002,42,11,1.63,GM,1681184640
318,chimbote,-9.0853,-78.5783,25.210000000000036,81,58,3.52,PE,1681184640
319,sorland,67.667,12.6934,5.920000000000016,74,0,9.79,NO,1681184640
320,mana,5.6592,-53.7767,25.510000000000048,84,100,4.0,GF,1681184640
321,tilichiki,60.4667,166.1,-11.70999999999998,91,100,5.84,RU,1681184641
322,dunedin,-45.8742,170.5036,13.04000000000002,93,97,3.42,NZ,1681184641
323,alice springs,-23.7,133.8833,33.75,13,77,5.14,AU,1681184571
324,kirksville,40.1948,-92.5833,16.140000000000043,67,0,1.54,US,1681184641
325,socorro,31.6546,-106.3033,25.5,22,0,4.12,US,1681184641
326,menongue,-14.6585,17.691,16.360000000000014,88,100,0.88,AO,1681184641
327,pangnirtung,66.1451,-65.7125,-15.310000000000002,60,0,3.34,CA,1681184642
328,luderitz,-26.6481,15.1594,15.150000000000034,40,21,3.13,NA,1681184642
329,nyrob,60.733,56.7202,-1.5199999999999818,91,100,3.99,RU,1681184642
330,bourail,-21.5667,165.4833,26.74000000000001,73,46,2.79,NC,1681184642
331,mardan,34.2019,72.0525,25.970000000000027,32,1,1.22,PK,1681184642
332,inhambane,-23.865,35.3833,24.99000000000001,94,75,2.57,MZ,1681184643
333,kathu,7.9178,98.3332,31.900000000000034,65,55,0.6,TH,1681184643
334,yining,29.0361,114.5636,27.08000000000004,59,40,1.28,CN,1681184643
335,brzesko,49.9691,20.6061,6.010000000000048,92,6,1.22,PL,1681184409
336,san quintin,30.4833,-115.95,14.360000000000014,86,3,3.94,MX,1681184643
337,bhakkar,31.6253,71.0657,29.79000000000002,20,3,1.59,PK,1681184644
338,broken hill,-31.95,141.4333,23.420000000000016,29,60,3.38,AU,1681184644
339,hetauda,27.4284,85.0322,26.640000000000043,15,0,2.32,NP,1681184644
340,dzhebariki-khaya,62.2167,135.8,-7.689999999999998,75,92,3.27,RU,1681184644
341,oistins,13.0667,-59.5333,26.05000000000001,69,40,8.75,BB,1681184645
342,namatanai,-3.6667,152.4333,28.52000000000004,72,90,2.21,PG,1681184645
343,neuquen,-38.9516,-68.0591,10.939999999999998,82,0,0.0,AR,1681184351
344,vila franca do campo,37.7167,-25.4333,16.230000000000018,93,36,3.36,PT,1681184645
345,lorengau,-2.0226,147.2712,27.29000000000002,78,100,1.02,PG,1681184645
346,daru,-9.0763,143.2092,28.970000000000027,74,65,1.89,PG,1681184645
347,tanout,14.9709,8.8879,25.810000000000002,19,89,5.61,NE,1681184646
348,taoudenni,22.6783,-3.9836,24.180000000000007,11,96,4.54,ML,1681184646
349,sola,-13.8833,167.55,27.860000000000014,76,93,3.06,VU,1681184646
350,canico,32.6333,-16.85,19.350000000000023,48,20,8.23,PT,1681184647
351,cravo norte,6.3017,-70.2041,26.370000000000005,77,92,0.49,CO,1681184647
352,sinfra,6.6167,-5.9167,22.560000000000002,93,99,1.0,CI,1681184647
353,sangar,63.9242,127.4739,-5.5,83,100,2.61,RU,1681184647
354,san juan del sur,11.2529,-85.8705,26.129999999999995,71,14,10.35,NI,1681184648
355,pionerskiy,54.9508,20.2275,2.910000000000025,91,48,4.68,RU,1681184648
356,kaputa,-8.4689,29.6619,19.920000000000016,92,100,1.62,ZM,1681184648
357,guaymas,27.9333,-110.9,24.939999999999998,31,43,2.04,MX,1681184625
358,cody,44.5263,-109.0565,12.730000000000018,50,0,1.54,US,1681184649
359,rustam,27.969,68.8048,22.970000000000027,16,100,1.7,PK,1681184649
360,kinablangan,7.6947,126.5503,28.74000000000001,76,93,4.13,PH,1681184649
361,salina,38.8403,-97.6114,16.07000000000005,69,0,5.14,US,1681184503
362,xinzhou,38.4092,112.7333,15.600000000000023,9,11,5.95,CN,1681184649
363,pocao de pedras,-4.6667,-44.85,22.700000000000045,99,100,1.71,BR,1681184650
364,abu samrah,35.3029,37.1841,14.910000000000025,85,38,5.49,SY,1681184650
365,harper,4.375,-7.7169,26.360000000000014,82,100,1.72,LR,1681184650
366,dukat,62.55,155.55,-11.319999999999993,80,100,6.2,RU,1681184650
367,felipe carrillo puerto,19.5833,-88.05,21.75,84,69,1.01,MX,1681184651
368,harer,9.3094,42.1258,17.25,70,99,2.8,ET,1681184651
369,shiyan,32.6475,110.7781,27.27000000000004,20,100,4.08,CN,1681184651
370,touros,-5.1989,-35.4608,25.200000000000045,83,85,4.48,BR,1681184651
371,mogadishu,2.0371,45.3438,28.370000000000005,76,68,7.27,SO,1681184651
372,husavik,66.0449,-17.3389,2.1899999999999977,98,100,3.58,IS,1681184652
373,the valley,18.217,-63.0578,25.920000000000016,77,0,7.08,AI,1681184434
374,songjianghe,42.1859,127.479,9.980000000000018,44,89,8.42,CN,1681184652
375,slanic-moldova,46.2,26.4333,3.660000000000025,93,100,1.99,RO,1681184652
376,balykshi,47.0667,51.8667,7.0,76,0,4.0,KZ,1681184652
377,katsuura,35.1333,140.3,18.83000000000004,65,0,10.04,JP,1681184652
378,nuristan,35.3,70.8333,3.080000000000041,40,6,0.89,AF,1681184653
379,kishtwar,33.3167,75.7667,17.590000000000032,30,1,0.69,IN,1681184653
380,isiro,2.7739,27.616,18.610000000000014,98,99,1.01,CD,1681184653
381,yarmouth,41.7057,-70.2286,8.03000000000003,82,0,5.14,US,1681184653
382,constitucion,-35.3333,-72.4167,14.79000000000002,96,94,2.14,CL,1681184653
383,aykhal,66.0,111.5,-15.199999999999989,79,73,5.85,RU,1681184653
384,baculin,7.4525,126.5842,28.53000000000003,79,88,4.0,PH,1681184654
385,ambilobe,-13.2,49.05,23.629999999999995,91,6,1.09,MG,1681184654
386,santa fe,-31.6333,-60.7,20.53000000000003,93,54,2.94,AR,1681184398
387,laurens,32.4502,-82.9165,11.28000000000003,77,21,3.61,US,1681184654
388,turayf,31.6725,38.6637,13.140000000000043,100,40,3.09,SA,1681184655
389,tacna,-18.0056,-70.2483,18.110000000000014,82,0,1.54,PE,1681184553
390,moa,20.6569,-74.9403,22.920000000000016,90,86,0.19,CU,1681184655
391,north platte,41.1239,-100.7654,16.180000000000007,34,0,3.58,US,1681184655
392,bambanglipuro,-7.95,110.2833,29.470000000000027,68,56,4.31,ID,1681184655
393,dhidhdhoo,6.8833,73.1,29.0,72,61,6.16,MV,1681184656
394,hostotipaquillo,21.0667,-104.0667,17.58000000000004,38,41,1.8,MX,1681184656
395,mar del plata,-38.0023,-57.5575,17.75,84,100,8.94,AR,1681184410
396,coihaique,-45.5752,-72.0662,0.34000000000003183,95,99,0.27,CL,1681184656
397,eenhana,-17.4667,16.3333,18.879999999999995,68,79,1.5,NA,1681184657
398,saint-georges,12.0564,-61.7485,26.82000000000005,78,20,7.72,GD,1681184657
399,puerto madryn,-42.7692,-65.0385,13.560000000000002,66,97,8.74,AR,1681184657
400,mahon,39.8885,4.2658,10.310000000000002,100,95,2.57,ES,1681184657
401,riyadh,24.6877,46.7219,24.08000000000004,57,55,2.88,SA,1681184456
402,santa vitoria do palmar,-33.5189,-53.3681,18.470000000000027,86,44,2.92,BR,1681184657
403,havelock,34.8791,-76.9013,11.990000000000009,83,0,4.63,US,1681184658
404,mindelo,16.8901,-24.9804,20.75,68,40,6.17,CV,1681184658
405,fortuna,40.5982,-124.1573,11.189999999999998,94,100,4.47,US,1681184658
406,minuri,16.535,121.8574,30.600000000000023,53,100,2.48,PH,1681184658
407,talnakh,69.4865,88.3972,-18.46999999999997,87,100,2.82,RU,1681184658
408,prince albert,53.2001,-105.7677,3.9700000000000273,60,100,5.66,CA,1681184658
409,baruun-urt,46.6806,113.2792,-1.3100000000000023,14,0,12.58,MN,1681184659
410,diffa,13.3154,12.6113,28.55000000000001,14,100,4.82,NE,1681184659
411,upata,8.0086,-62.3989,24.55000000000001,83,95,2.31,VE,1681184659
412,port hedland,-20.3167,118.5667,37.03000000000003,18,45,5.66,AU,1681184659
413,srednekolymsk,67.45,153.6833,-12.67999999999995,77,92,4.1,RU,1681184659
414,mareeba,-17.0,145.4333,28.400000000000034,58,37,1.4,AU,1681184660
415,mocuba,-16.8392,36.9856,21.180000000000007,99,13,1.32,MZ,1681184660
416,qaqortoq,60.7167,-46.0333,1.0100000000000477,69,100,3.07,GL,1681184660
417,nador,35.174,-2.9287,24.140000000000043,16,0,4.63,MA,1681184660
418,westport,41.1415,-73.3579,10.160000000000025,70,0,1.54,US,1681184661
419,kiama,-34.6833,150.8667,23.470000000000027,54,11,7.52,AU,1681184614
420,atar,20.5169,-13.0499,26.640000000000043,32,36,4.38,MR,1681184661
421,kavieng,-2.5744,150.7967,27.5,77,98,3.13,PG,1681184661
422,port hardy,50.6996,-127.4199,7.0,100,100,3.09,CA,1681184661
423,hambantota,6.1241,81.1185,29.189999999999998,84,20,5.14,LK,1681184661
424,vanavara,60.34,102.2797,-3.2899999999999636,90,100,6.1,RU,1681184661
425,winneba,5.3511,-0.6231,26.760000000000048,84,100,3.21,GH,1681184662
426,fare,-16.7,-151.0167,27.340000000000032,75,100,3.84,PF,1681184662
427,zwedru,6.0667,-8.1281,22.810000000000002,94,93,1.19,LR,1681184662
428,hare bay,48.8499,-54.0148,1.6400000000000432,94,21,2.37,CA,1681184662
429,ayan,56.45,138.1667,-2.269999999999982,61,36,1.64,RU,1681184662
430,zhicheng,30.2956,111.5047,25.99000000000001,50,100,5.5,CN,1681184662
431,laguna,38.421,-121.4238,19.08000000000004,70,0,5.66,US,1681184662
432,saint anthony,45.0205,-93.218,14.670000000000016,50,0,1.54,US,1681184663
433,nhulunbuy,-12.2333,136.7667,32.34000000000003,66,20,4.12,AU,1681184663
434,acapulco,16.8634,-99.8901,27.900000000000034,78,0,3.09,MX,1681184533
435,sungairaya,0.7,108.9,31.010000000000048,60,93,2.45,ID,1681184663
436,korla,41.7597,86.1469,16.79000000000002,20,90,1.31,CN,1681184663
437,waitara,-38.925,174.25,17.5,93,100,6.43,NZ,1681184664
438,chuy,-33.6971,-53.4616,18.129999999999995,88,34,2.88,UY,1681184664
439,serramanna,39.4244,8.9244,10.900000000000034,93,0,1.03,IT,1681184664
440,rio grande,-32.035,-52.0986,21.930000000000007,86,94,2.84,BR,1681184664
441,xai-xai,-25.0519,33.6442,23.420000000000016,91,96,5.17,MZ,1681184664
442,koslan,63.4564,48.8989,-0.9699999999999704,94,100,4.12,RU,1681184664
443,poum,-20.2333,164.0167,27.420000000000016,70,2,1.7,NC,1681184665
444,takoradi,4.8845,-1.7554,26.420000000000016,85,100,2.78,GH,1681184665
445,bria,6.5423,21.9863,23.150000000000034,81,100,2.24,CF,1681184665
446,faya,18.3851,42.4509,15.29000000000002,51,1,2.93,SA,1681184665
447,oranjemund,-28.55,16.4333,12.610000000000014,78,50,4.29,NA,1681184666
448,rio gallegos,-51.6226,-69.2181,5.03000000000003,70,0,10.29,AR,1681184486
449,sao miguel do araguaia,-13.275,-50.1628,22.090000000000032,93,23,1.4,BR,1681184666
450,lumphat,13.4878,106.9816,36.410000000000025,37,30,1.9,KH,1681184666
451,broome,42.2506,-75.833,9.79000000000002,52,50,1.55,US,1681184667
452,kirakira,-10.4544,161.9205,28.28000000000003,76,80,1.22,SB,1681184667
453,lancaster,40.2504,-76.2499,10.210000000000036,56,0,1.73,US,1681184667
454,kolar,13.1333,78.1333,30.720000000000027,25,58,3.88,IN,1681184667
455,kabalo,-6.05,26.9167,20.350000000000023,96,100,1.31,CD,1681184667
456,arman,59.7,150.1667,0.010000000000047748,55,44,6.99,RU,1681184668
457,contamana,-7.3333,-75.0167,22.730000000000018,89,48,0.24,PE,1681184668
458,yulara,-25.2406,130.9889,34.69,17,100,8.38,AU,1681184668
459,wewak,-3.5534,143.6268,27.140000000000043,82,99,1.76,PG,1681184668
460,novikovo,51.1537,37.8879,6.980000000000018,65,99,3.21,RU,1681184669
461,ilinskiy,55.619,38.1182,8.07000000000005,90,99,0.0,RU,1681184669
462,kuantan,3.8077,103.326,31.060000000000002,62,20,2.06,MY,1681184669
463,giddalur,15.35,78.9167,32.81,23,17,2.76,IN,1681184669
464,hamilton,39.1834,-84.5333,13.57000000000005,54,0,1.54,US,1681184669
465,chernyshevskiy,63.0128,112.4714,-9.799999999999955,74,99,2.62,RU,1681184669
466,nueva gerona,21.8833,-82.8,24.980000000000018,74,50,4.43,CU,1681184670
467,alenquer,-1.9417,-54.7383,23.49000000000001,96,100,0.92,BR,1681184670
468,vestmannaeyjar,63.4427,-20.2734,4.770000000000039,93,100,7.66,IS,1681184671
469,ransang,8.9603,117.5828,29.04000000000002,69,98,2.15,PH,1681184671
470,kulhudhuffushi,6.6221,73.07,28.910000000000025,72,67,5.76,MV,1681184671
471,dudinka,69.4058,86.1778,-18.74999999999997,91,100,6.04,RU,1681184671
472,araceli,10.5529,119.9913,27.650000000000034,73,99,5.23,PH,1681184671
473,cacheu,12.2706,-16.1658,22.05000000000001,68,51,1.68,GW,1681184671
474,danilovka,50.3557,44.1168,8.170000000000016,51,62,2.78,RU,1681184671
475,puerto concordia,2.6221,-72.7572,23.760000000000048,89,99,0.31,CO,1681184672
476,yeppoon,-23.1333,150.7333,29.879999999999995,36,0,2.68,AU,1681184672
477,quimper,48.0,-4.1,10.310000000000002,93,75,2.06,FR,1681184530
478,neiafu,-18.65,-173.9833,29.379999999999995,79,20,5.66,TO,1681184672
479,nome,64.5011,-165.4064,-19.95999999999998,59,0,2.06,US,1681184672
480,palana,59.1167,159.9667,-8.539999999999964,80,100,9.57,RU,1681184673
481,srandakan,-7.9386,110.2506,29.560000000000002,68,58,4.2,ID,1681184673
482,mbigou,-1.9005,11.906,19.79000000000002,100,100,1.12,GA,1681184673
483,carauari,-4.8828,-66.8958,22.470000000000027,96,85,0.74,BR,1681184673
484,bilibino,68.0546,166.4372,-14.310000000000002,76,6,2.0,RU,1681184674
485,clyde river,70.4692,-68.5914,-22.869999999999976,77,0,8.23,CA,1681184674
486,shakiso,5.75,38.9167,15.430000000000007,76,100,1.73,ET,1681184674
487,lagoa,39.05,-27.9833,15.450000000000045,89,100,10.3,PT,1681184674
488,fort nelson,58.8053,-122.7002,5.770000000000039,33,20,3.6,CA,1681184406
489,avera,33.194,-82.5271,8.730000000000018,62,74,3.15,US,1681184675
490,pordim,43.3833,24.85,7.420000000000016,92,100,4.14,BG,1681184675
491,seoul,37.5683,126.9778,17.660000000000025,72,75,8.75,KR,1681184233
492,san policarpo,12.1791,125.5072,23.860000000000014,93,100,6.31,PH,1681184675
493,ola,59.5833,151.2833,0.08000000000004093,54,100,8.11,RU,1681184675
494,tarakan,3.3,117.6333,29.720000000000027,74,40,2.06,ID,1681184676
495,pekan,3.4836,103.3996,31.060000000000002,60,41,2.68,MY,1681184676
496,sabae,35.9465,136.185,22.0,43,3,5.47,JP,1681184676
497,yenagoa,4.9247,6.2642,24.960000000000036,92,98,2.06,NG,1681184676
498,kalabo,-14.97,22.6814,19.650000000000034,79,100,2.73,ZM,1681184676
499,turan,16.0678,108.2208,28.99000000000001,74,40,2.57,VN,1681184677
500,puerto baquerizo moreno,-0.9,-89.6,26.939999999999998,71,28,0.77,EC,1681184548
501,catalina,32.5056,-110.9211,28.24000000000001,14,0,1.79,US,1681184677
502,del rio,29.3627,-100.8968,22.060000000000002,72,0,4.63,US,1681184677
503,xuddur,4.1213,43.8894,24.650000000000034,73,44,7.88,SO,1681184677
504,abha,18.2164,42.5053,15.140000000000043,59,0,3.6,SA,1681184677
505,rey bouba,8.6724,14.1786,29.640000000000043,37,100,1.58,CM,1681184678
506,ruidoso,33.3317,-105.673,16.090000000000032,47,31,3.6,US,1681184587
507,alta,69.9689,23.2717,-4.409999999999968,93,0,2.57,NO,1681184678
508,teya,60.3778,92.6267,1.3100000000000023,98,100,5.33,RU,1681184678
509,poso,-1.3959,120.7524,30.860000000000014,62,40,2.48,ID,1681184678
510,norman wells,65.282,-126.8329,-2.9799999999999613,54,75,4.12,CA,1681184516
511,port augusta,-32.5,137.7667,26.910000000000025,29,92,11.33,AU,1681184678
512,comodoro rivadavia,-45.8667,-67.5,7.920000000000016,76,0,2.06,AR,1681184679
513,tiarei,-17.5333,-149.3333,29.010000000000048,78,94,4.99,PF,1681184679
514,buraydah,26.326,43.975,16.25,64,3,5.14,SA,1681184679
515,kortkeros,61.8106,51.5806,-2.0,92,100,3.72,RU,1681184679
516,gladstone,-23.85,151.25,31.55000000000001,28,0,2.06,AU,1681184679
517,colares,38.7992,-9.4469,15.740000000000009,81,16,6.71,PT,1681184680
518,arraias,-12.9288,-46.9437,20.480000000000018,90,77,1.5,BR,1681184680
519,sulangan,11.1373,123.7228,23.560000000000002,83,100,3.01,PH,1681184680
520,santa rosa,14.3122,121.1114,31.99000000000001,66,98,2.34,PH,1681184680
521,robertsganj,24.7,83.0667,33.450000000000045,9,2,3.07,IN,1681184680
522,urubicha,-15.3833,-62.95,21.620000000000005,97,8,0.74,BO,1681184681
523,radhanpur,23.8333,71.6,31.110000000000014,35,5,3.44,IN,1681184681
524,port shepstone,-30.7414,30.455,17.82000000000005,76,82,6.57,ZA,1681184681
525,dom pedrito,-30.9828,-54.6731,18.189999999999998,83,0,3.14,BR,1681184451
526,linkuva,56.0856,23.9725,6.3700000000000045,89,27,2.79,LT,1681184681
527,kendari,-3.945,122.4989,30.890000000000043,62,93,3.05,ID,1681184681
528,mandiana,10.6333,-8.6833,26.590000000000032,61,100,2.54,GN,1681184681
529,hirata,35.4333,132.8167,24.010000000000048,53,20,9.26,JP,1681184439
530,bhainsdehi,21.6467,77.6325,32.03000000000003,23,38,1.45,IN,1681184682
531,braco do norte,-28.275,-49.1656,20.49000000000001,92,97,0.7,BR,1681184425
532,luganville,-15.5333,167.1667,29.370000000000005,70,99,2.14,VU,1681184682
533,gisborne,-38.6533,178.0042,21.5,54,9,4.45,NZ,1681184682
534,lucapa,-8.4192,20.7447,17.80000000000001,96,100,0.8,AO,1681184682
535,jalapa,19.5333,-96.9167,15.860000000000014,96,100,0.72,MX,1681184680
536,kysyl-syr,63.8986,122.7617,-9.42999999999995,89,100,2.31,RU,1681184682
537,ternate,0.8,127.4,29.600000000000023,69,55,2.51,ID,1681184683
538,phan thiet,10.9333,108.1,31.629999999999995,55,100,4.73,VN,1681184683
539,puerto escondido,15.85,-97.0667,28.460000000000036,74,20,1.54,MX,1681184683
540,verkhnevilyuysk,63.4453,120.3167,-8.46999999999997,78,100,0.75,RU,1681184683
541,maragogi,-9.0122,-35.2225,25.08000000000004,81,96,2.59,BR,1681184683
542,muzhi,65.3667,64.6667,-12.70999999999998,92,100,3.89,RU,1681184684
543,blagoyevo,63.3667,47.9167,-0.2899999999999636,91,100,3.66,RU,1681184684
544,lasa,46.6166,10.7002,7.490000000000009,68,100,0.93,IT,1681184684
545,concordia,-31.393,-58.0209,19.32000000000005,91,0,0.89,AR,1681184684
546,borzya,50.3833,116.5167,-4.159999999999968,71,100,12.08,RU,1681184684
547,usinsk,65.9939,57.5281,-0.7299999999999613,97,100,7.66,RU,1681184387
548,puerto rico,-26.796,-55.024,21.54000000000002,83,3,0.52,AR,1681184685
549,korcula,42.9622,17.1369,11.150000000000034,62,0,3.03,HR,1681184685
550,ust-maya,60.4167,134.5333,-5.810000000000002,76,71,2.83,RU,1681184685
551,jaisalmer,26.9147,70.9181,30.680000000000007,23,98,1.72,IN,1681184685
552,moose factory,51.2585,-80.6094,7.0,65,100,4.12,CA,1681184686
553,hualmay,-11.0964,-77.6139,24.060000000000002,81,71,3.69,PE,1681184686
554,kungurtug,50.5994,97.5228,0.7200000000000273,55,42,0.6,RU,1681184686
555,curuca,-0.7289,-47.8481,23.700000000000045,95,100,0.29,BR,1681184686
556,qui nhon,13.7667,109.2333,28.600000000000023,68,98,4.35,VN,1681184687
557,gejiu,23.306,103.1635,25.28000000000003,20,3,3.45,CN,1681184687
558,bairiki,1.3292,172.9752,30.0,74,40,3.09,KI,1681184687
559,sverdlovskiy,55.9108,38.1536,7.860000000000014,86,93,0.78,RU,1681184687
560,puerto narino,-3.7703,-70.3831,22.49000000000001,97,97,0.42,CO,1681184687
561,ekhabi,53.5102,142.9671,0.9200000000000159,46,0,2.71,RU,1681184688
562,yaan,7.3833,8.5667,26.689999999999998,75,100,5.04,NG,1681184688
563,abnub,27.2696,31.1511,15.120000000000005,67,91,4.52,EG,1681184688
564,preobrazheniye,42.9019,133.9064,8.730000000000018,73,100,5.22,RU,1681184688
565,anaco,9.4389,-64.4728,26.05000000000001,67,67,6.12,VE,1681184688
566,tikrit,34.6071,43.6782,23.260000000000048,24,100,4.79,IQ,1681184688
567,mangan,27.5167,88.5333,25.960000000000036,33,3,2.64,IN,1681184689
568,flin flon,54.7682,-101.865,2.1200000000000045,87,9,3.68,CA,1681184689
